[
  {
    "name": "Panbazar Higher Secondary School",
    "address": "Bazar, M.L.N Road Pan, Guwahati, Assam 781001",
    "phone": "086387 04553",
    "website": "",
    "plus_code": "5PMW+R4 Guwahati, Assam",
    "photon_source": "photon.komoot.io",
    "lat": "26.1823701",
    "lon": "91.7501234",
    "result_index": 1,
    "area": "Pan Bazaar",
    "city": "Guwahati",
    "location_type": "schools"
  },
  {
    "name": "Panbazar Higher Secondary School",
    "address": "Bazar, M.L.N Road Pan, Guwahati, Assam 781001",
    "phone": "086387 04553",
    "website": "",
    "plus_code": "5PMW+R4 Guwahati, Assam",
    "photon_source": "photon.komoot.io",
    "lat": "26.1823701",
    "lon": "91.7501234",
    "result_index": 2,
    "area": "Pan Bazaar",
    "city": "Guwahati",
    "location_type": "schools"
  },
  {
    "name": "Don Bosco School, Guwahati.",
    "address": "5PQV+9X6, Collegiate School Rd, Pan Bazaar, Guwahati, Assam 781001",
    "phone": "094355 54359",
    "website": "cottoncollegiate.org",
    "plus_code": "5PQV+9X6",
    "photon_source": "photon.komoot.io",
    "lat": "26.187897424030623",
    "lon": "91.74459480730054",
    "result_index": 3,
    "area": "Pan Bazaar",
    "city": "Guwahati",
    "location_type": "schools"
  },
  {
    "name": "Pragjyotish English Senior Secondary School",
    "address": "10, Danish Rd, Kamarpatty, Pan Bazar, Fancy Bazaar, Guwahati, Assam 781001",
    "phone": "081359 80284",
    "website": "",
    "plus_code": "5PMR+6J Guwahati, Assam",
    "lat": "",
    "lon": "",
    "result_index": 4,
    "area": "Pan Bazaar",
    "city": "Guwahati",
    "location_type": "schools"
  },
  {
    "name": "Srimanta Shankar Academy(SSA) , Panbazar",
    "address": "Dr JC Das Rd, Lakhtokia, Pan Bazaar, Guwahati, Assam 781001",
    "phone": "",
    "website": "ssa-panbazar.org",
    "plus_code": "5PMR+GX Guwahati, Assam",
    "lat": "",
    "lon": "",
    "result_index": 5,
    "area": "Pan Bazaar",
    "city": "Guwahati",
    "location_type": "schools"
  },
  {
    "name": "EuroKids PreSchool, Panbazar, Guwahati",
    "address": "1st Floor, Saraswati Complex, Jaswanta Rd, Saraswati Market, Pan Bazaar, Guwahati, Assam 781001",
    "phone": "085848 53437",
    "website": "eurokidsindia.com",
    "plus_code": "5PPV+F8 Guwahati, Assam",
    "lat": "",
    "lon": "",
    "result_index": 6,
    "area": "Pan Bazaar",
    "city": "Guwahati",
    "location_type": "schools"
  },
  {
    "name": "EuroKids PreSchool, Panbazar, Guwahati",
    "address": "1st Floor, Saraswati Complex, Jaswanta Rd, Saraswati Market, Pan Bazaar, Guwahati, Assam 781001",
    "phone": "085848 53437",
    "website": "eurokidsindia.com",
    "plus_code": "5PPV+F8 Guwahati, Assam",
    "lat": "",
    "lon": "",
    "result_index": 7,
    "area": "Pan Bazaar",
    "city": "Guwahati",
    "location_type": "schools"
  },
  {
    "name": "Panbazar Adarsha Prathamik Vidyalaya",
    "address": "5PPR+XVX, Pan Bazaar, Guwahati, Assam 781001",
    "phone": "",
    "website": "",
    "plus_code": "5PPR+XVX",
    "photon_source": "photon.komoot.io",
    "lat": "26.1823701",
    "lon": "91.7501234",
    "result_index": 8,
    "area": "Pan Bazaar",
    "city": "Guwahati",
    "location_type": "schools"
  }
]